{
  "Sheet1": [
    {
      "state": "W.P. PUTRAJAYA",
      "place": "MASJID PUTRA",
      "address": "MASJID PUTRA, PUTRAJAYA\nPUSAT PENTADBIRAN KERAJAAN PERSEKUTUAN 62502, PUTRAJAYA, WILAYAH PERSEKUTUAN",
      "poskod": 62502,
      "district": "WILAYAH PERSEKUTUAN PUTRAJAYA",
      "no_tel": "03-88885678",
      "no_fax": "03-88883166",
      "lat": 2.9361,
      "lng": 101.6892,
      "refid": 1
    },
    {
      "state": "W.P. PUTRAJAYA",
      "place": "MASJID TUANKU MIZAN ZAINAL ABIDIN",
      "address": "NO 25 JALAN TUNKU ABD RAHMAN\nPRESINT 3\nPUSAT PENTADBIRAN KERAJAAN PERSEKUTUAN,\nPUTRAJAYA",
      "poskod": 62100,
      "district": "WILAYAH PERSEKUTUAN PUTRAJAYA",
      "no_tel": 388804300,
      "no_fax": 388901614,
      "lat": 2.9192,
      "lng": 101.6812,
      "refid": 2
    },
    {
      "state": "W.P. LABUAN",
      "place": "MASJID AL-MUZAKIRULLAH",
      "address": "JALAN  TANJUNG KUBONG,KG. LUBOK TEMIANG",
      "poskod": 87000,
      "district": "WILAYAH PERSEKUTUAN LABUAN",
      "no_tel": "016-8467224",
      "no_fax": "TIADA MAKLUMAT",
      "lat": 2.9192,
      "lng": 101.6812,
      "refid": 3
    },
    {
      "state": "W.P. LABUAN",
      "place": "MASJID AL-FALAH",
      "address": "JALAN MOHD SALLEH\nKG. BUKIT KALAM",
      "poskod": 87008,
      "district": "WILAYAH PERSEKUTUAN LABUAN",
      "no_tel": "013-8599482",
      "no_fax": "TIADA MAKLUMAT",
      "lat": 5.41328517,
      "lng": 115.2407699,
      "refid": 4
    },
    {
      "state": "W.P. LABUAN",
      "place": "MASJID SULTAN MUHAMMAD V",
      "address": "JALAN POHON BATU\nKAMPUNG LAJAU",
      "poskod": 87000,
      "district": "WILAYAH PERSEKUTUAN LABUAN",
      "no_tel": "019-9319616",
      "no_fax": "TIADA MAKLUMAT",
      "lat": 5.332692174,
      "lng": 115.234626,
      "refid": 5
    },
    {
      "state": "W.P. LABUAN",
      "place": "MASJID JAMEK ADAM",
      "address": "KAMPUNG LAJAU",
      "poskod": 87000,
      "district": "WILAYAH PERSEKUTUAN LABUAN",
      "no_tel": "019-8953788",
      "no_fax": "TIADA MAKLUMAT",
      "lat": 5.347101779,
      "lng": 115.2341492,
      "refid": 6
    },
    {
      "state": "W.P. LABUAN",
      "place": "MASJID BEBULOH DARAT",
      "address": "KG. BEBULOH DARAT",
      "poskod": 87000,
      "district": "WILAYAH PERSEKUTUAN LABUAN",
      "no_tel": "012-8436656",
      "no_fax": "TIADA MAKLUMAT",
      "lat": 5.276932128,
      "lng": 115.1880391,
      "refid": 7
    },
    {
      "state": "W.P. LABUAN",
      "place": "MASJID NUR IMAN",
      "address": "KG. GANGGARAK\nPETI SURAT 81384",
      "poskod": 87023,
      "district": "WILAYAH PERSEKUTUAN LABUAN",
      "no_tel": "016-8373456",
      "no_fax": "TIADA MAKLUMAT",
      "lat": 6.027822137,
      "lng": 116.112321,
      "refid": 8
    },
    {
      "state": "W.P. LABUAN",
      "place": "MASJID RANCHA- RANCHA DARAT",
      "address": "KG. RANCHA - RANCHA DARAT\nPETI SURAT 82253\n87032 W.P. LABUAN",
      "poskod": 87032,
      "district": "WILAYAH PERSEKUTUAN LABUAN",
      "no_tel": "012-838 9406",
      "no_fax": "TIADA MAKLUMAT",
      "lat": 5.263874666,
      "lng": 115.2323682,
      "refid": 9
    },
    {
      "state": "W.P. LABUAN",
      "place": "MASJID NURUL IMAN",
      "address": "KG. SUNGAI BEDAUN\nPETI SURAT 80182",
      "poskod": 80712,
      "district": "WILAYAH PERSEKUTUAN LABUAN",
      "no_tel": "019-8213458 ",
      "no_fax": "TIADA MAKLUMAT",
      "lat": 5.25759956,
      "lng": 115.6002182,
      "refid": 10
    },
    {
      "state": "W.P. LABUAN",
      "place": "MASJID SIRAJUL ISLAM",
      "address": "KG. TANJUNG ARU\nP.O.BOX 81954\n87029 WILAYAH PERSEKUTUAN LABUAN",
      "poskod": 87029,
      "district": "WILAYAH PERSEKUTUAN LABUAN",
      "no_tel": 195344756,
      "no_fax": "TIADA MAKLUMAT",
      "lat": 5.346890057,
      "lng": 115.2426672,
      "refid": 11
    },
    {
      "state": "W.P. LABUAN",
      "place": "MASJID JAMEK LAYANG-LAYANGAN",
      "address": "KG.LAYANG-LAYANG,\nPETI SURAT 81896",
      "poskod": 87028,
      "district": "WILAYAH PERSEKUTUAN LABUAN",
      "no_tel": "013-8562102",
      "no_fax": "TIADA MAKLUMAT",
      "lat": 5.331154419,
      "lng": 115.1955118,
      "refid": 12
    },
    {
      "state": "W.P. LABUAN",
      "place": "MASJID AL MUNAWWAR",
      "address": "KG.POHON BATU\nPETI SURAT 156",
      "poskod": 87000,
      "district": "WILAYAH PERSEKUTUAN LABUAN",
      "no_tel": "013-8578908",
      "no_fax": "TIADA MAKLUMAT",
      "lat": 5.372308657,
      "lng": 115.2205518,
      "refid": 13
    },
    {
      "state": "W.P. LABUAN",
      "place": "MASJID AL-EHSAN",
      "address": "KG.SUNGAI LABU\nPETI SURAT 80729\nW.P LABUAN",
      "poskod": 87017,
      "district": "WILAYAH PERSEKUTUAN LABUAN",
      "no_tel": "012-8296677",
      "no_fax": "TIADA MAKLUMAT",
      "lat": 5.323128816,
      "lng": 115.1868475,
      "refid": 14
    },
    {
      "state": "W.P. LABUAN",
      "place": "MASJID AR-RAHMAN",
      "address": "KG.SUNGAI LADA",
      "poskod": 87000,
      "district": "WILAYAH PERSEKUTUAN LABUAN",
      "no_tel": "0111-6040252",
      "no_fax": "TIADA MAKLUMAT",
      "lat": 5.305485157,
      "lng": 115.1808023,
      "refid": 15
    },
    {
      "state": "W.P. LABUAN",
      "place": "MASJID JAMEK AN- NUR",
      "address": "PETI SURAT 81981",
      "poskod": 87029,
      "district": "WILAYAH PERSEKUTUAN LABUAN",
      "no_tel": "087-414212",
      "no_fax": "087-426212",
      "lat": 5.284070931,
      "lng": 115.2475622,
      "refid": 16
    },
    {
      "state": "W.P. LABUAN",
      "place": "MASJID AL - MUTTAKIN",
      "address": "TAMAN IOFC,  KG.KERUPANG 2",
      "poskod": 87000,
      "district": "WILAYAH PERSEKUTUAN LABUAN",
      "no_tel": "017-2930699",
      "no_fax": "TIADA MAKLUMAT",
      "lat": 5.318457066,
      "lng": 115.2469183,
      "refid": 17
    },
    {
      "state": "W.P. KUALA LUMPUR",
      "place": "MASJID MUHAMMADI ",
      "address": "TIADA MAKLUMAT",
      "poskod": "Tiada maklumat",
      "district": "ZON 6",
      "no_tel": "TIADA MAKLUMAT",
      "no_fax": "TIADA MAKLUMAT",
      "lat": 3.111782778,
      "lng": 101.6727881,
      "refid": 18
    },
    {
      "state": "W.P. KUALA LUMPUR",
      "place": "MASJID IBN MAS`UD",
      "address": "102, JALAN DAMAI\nOFF JALAN AMPANG",
      "poskod": 55000,
      "district": "ZON 4",
      "no_tel": "03-21484617",
      "no_fax": "TIADA MAKLUMAT",
      "lat": 3.163499325,
      "lng": 101.7278735,
      "refid": 19
    },
    {
      "state": "W.P. KUALA LUMPUR",
      "place": "MASJID USAMAH BIN ZAID",
      "address": "8A JALAN 2/27A \nWANGSA MAJU\nSETAPAK",
      "poskod": 53300,
      "district": "ZON 4",
      "no_tel": "03-41421653",
      "no_fax": "TIADA MAKLUMAT",
      "lat": 3.203129081,
      "lng": 101.7368664,
      "refid": 20
    },
    {
      "state": "W.P. KUALA LUMPUR",
      "place": "MASJID AMRU BIN AL-ASS",
      "address": "BANDAR BARU SENTUL,",
      "poskod": 51000,
      "district": "ZON 2",
      "no_tel": "03-40449611",
      "no_fax": "TIADA MAKLUMAT",
      "lat": 3.180187671,
      "lng": 101.69872,
      "refid": 21
    },
    {
      "state": "W.P. KUALA LUMPUR",
      "place": "MASJID JAMEK BANDAR BARU SERI PETALING",
      "address": "BANDAR BARU SERI PETALING,",
      "poskod": 57100,
      "district": "ZON 5",
      "no_tel": "03-90570162",
      "no_fax": "03-90595063",
      "lat": 3.069104088,
      "lng": 101.6890695,
      "refid": 22
    },
    {
      "state": "W.P. KUALA LUMPUR",
      "place": "MASJID AL-IMAM AL-GHAZALI",
      "address": "BANDAR MENJALARA, KEPONG",
      "poskod": 52100,
      "district": "ZON 1",
      "no_tel": "03-62773424",
      "no_fax": " 03-62801943",
      "lat": 3.196515382,
      "lng": 101.6281882,
      "refid": 23
    },
    {
      "state": "W.P. KUALA LUMPUR",
      "place": "MASJID AL-NAJIHIN",
      "address": "BANDAR SERI PERMAISURI\nCHERAS KUALA LUMPUR",
      "poskod": 56000,
      "district": "ZON 5",
      "no_tel": "TIADA MAKLUMAT",
      "no_fax": "TIADA MAKLUMAT",
      "lat": 3.09824015,
      "lng": 101.7112954,
      "refid": 24
    },
    {
      "state": "W.P. KUALA LUMPUR",
      "place": "MASJID SAIDINA OTHMAN IBNU AFFAN",
      "address": "BANDAR TUN RAZAK,",
      "poskod": 56000,
      "district": "ZON 5",
      "no_tel": "03-91734728",
      "no_fax": "03-91719195",
      "lat": 3.091171759,
      "lng": 101.7179988,
      "refid": 25
    },
    {
      "state": "W.P. KUALA LUMPUR",
      "place": "MASJID ABU HURAIRAH",
      "address": "BATU 5, KAMPUNG BATU, JALAN IPOH,",
      "poskod": 51200,
      "district": "ZON 1",
      "no_tel": "03-62517711",
      "no_fax": "03-62517711",
      "lat": 3.202119173,
      "lng": 101.6750411,
      "refid": 26
    },
    {
      "state": "W.P. KUALA LUMPUR",
      "place": "MASJID JAMEK PETALING",
      "address": "BATU 6,\nJALAN PUCHONG,",
      "poskod": 58200,
      "district": "ZON 5",
      "no_tel": "TIADA MAKLUMAT",
      "no_fax": "TIADA MAKLUMAT",
      "lat": 3.078485366,
      "lng": 101.6606928,
      "refid": 27
    },
    {
      "state": "W.P. KUALA LUMPUR",
      "place": "MASJID ABDUL RAHMAN BIN AUF",
      "address": "BT 5 1/2 JALAN PUCHONG,",
      "poskod": 58200,
      "district": "ZON 5",
      "no_tel": "03-77701171",
      "no_fax": "03-77701171",
      "lat": 3.0797739,
      "lng": 101.6655778,
      "refid": 28
    },
    {
      "state": "W.P. KUALA LUMPUR",
      "place": "MASJID AL-IKHLASIAH",
      "address": "BUKIT KERINCHI C2, \nPANTAI HILL PARK, \nJALAN PANTAI PERMAI 7, \nOFF JALAN PANTAI DALAM",
      "poskod": 59200,
      "district": "ZON 6",
      "no_tel": "03-22828912",
      "no_fax": "03-22828912",
      "lat": 3.107672687,
      "lng": 101.6674073,
      "refid": 29
    },
    {
      "state": "W.P. KUALA LUMPUR",
      "place": "MASJID AL-AKRAM",
      "address": "DATUK KERAMAT, JALAN DATUK KERAMAT",
      "poskod": 54000,
      "district": "ZON 4",
      "no_tel": "03-42570529",
      "no_fax": "TIADA MAKLUMAT",
      "lat": 3.166642024,
      "lng": 101.7295335,
      "refid": 30
    },
    {
      "state": "W.P. KUALA LUMPUR",
      "place": "MASJID ZAID BIN THABIT",
      "address": "DESA TUN RAZAK , KUALA LUMPUR",
      "poskod": 56000,
      "district": "ZON 5",
      "no_tel": "TIADA MAKLUMAT",
      "no_fax": "TIADA MAKLUMAT",
      "lat": 3.07819164,
      "lng": 101.714796,
      "refid": 31
    },
    {
      "state": "W.P. KUALA LUMPUR",
      "place": "MASJID ABU UBAIDAH AL-JARRAH",
      "address": "JALAN 1/26, TAMAN SRI RAMPAI,\nSETAPAK JAYA,",
      "poskod": 53300,
      "district": "ZON 4",
      "no_tel": "03-40315860",
      "no_fax": "03-40315860",
      "lat": 3.193694704,
      "lng": 101.7283474,
      "refid": 32
    },
    {
      "state": "W.P. KUALA LUMPUR",
      "place": "MASJID AL-KHASYI'IN,",
      "address": "JALAN 2/125 TAMAN DESA PETALING,\n57100 KUALA LUMPUR",
      "poskod": 57100,
      "district": "ZON 5",
      "no_tel": "03-90563851",
      "no_fax": "03-90563851",
      "lat": 3.083397733,
      "lng": 101.7101038,
      "refid": 33
    },
    {
      "state": "W.P. KUALA LUMPUR",
      "place": "MASJID TALHAH BIN UBAIDILLAH",
      "address": "JALAN ALAM SUTERA, BUKIT JALIL, KUALA LUMPUR",
      "poskod": 57000,
      "district": "ZON 5",
      "no_tel": "TIADA MAKLUMAT",
      "no_fax": "TIADA MAKLUMAT",
      "lat": 3.054657872,
      "lng": 101.6645376,
      "refid": 34
    },
    {
      "state": "W.P. KUALA LUMPUR",
      "place": "MASJID SAIDINA ABU BAKAR AS-SIDDIQ",
      "address": "JALAN ARA, BANGSAR KUALA LUMPUR",
      "poskod": 59000,
      "district": "ZON 6",
      "no_tel": "03-22833707",
      "no_fax": "03-22821222",
      "lat": 3.129751057,
      "lng": 101.6718575,
      "refid": 35
    },
    {
      "state": "W.P. KUALA LUMPUR",
      "place": "MASJID IBNU SINA",
      "address": "JALAN AYER MOLEK, TAMAN TASIK TITIWANGSA",
      "poskod": 53200,
      "district": "ZON 4",
      "no_tel": "03-40236897",
      "no_fax": "03-40236897",
      "lat": 3.185335557,
      "lng": 101.7056837,
      "refid": 36
    },
    {
      "state": "W.P. KUALA LUMPUR",
      "place": "MASJID AMANIAH",
      "address": "JALAN BESAR KEPONG,",
      "poskod": 52100,
      "district": "ZON 1",
      "no_tel": "03-62741336",
      "no_fax": "03-62741336",
      "lat": 3.213564335,
      "lng": 101.6343202,
      "refid": 37
    },
    {
      "state": "W.P. KUALA LUMPUR",
      "place": "MASJID BUKIT AMAN",
      "address": "JALAN BUKIT AMAN",
      "poskod": 50480,
      "district": "ZON 3",
      "no_tel": "03-22740525",
      "no_fax": "03-22740521",
      "lat": 3.148140832,
      "lng": 101.6888028,
      "refid": 38
    },
    {
      "state": "W.P. KUALA LUMPUR",
      "place": "MASJID AT-TAQWA",
      "address": "JALAN DATUK SULAIMAN,\nTAMAN TUN DR.ISMAIL",
      "poskod": 60000,
      "district": "ZON 6",
      "no_tel": "03-77293710",
      "no_fax": "03-77264159",
      "lat": 3.146267377,
      "lng": 101.6293759,
      "refid": 39
    },
    {
      "state": "W.P. KUALA LUMPUR",
      "place": "MASJID AL-MUHSININ",
      "address": "JALAN DESA BAKTI, TAMAN DESA OFF JALAN KLNG LAMA,",
      "poskod": 58000,
      "district": "ZON 5",
      "no_tel": "TIADA MAKLUMAT",
      "no_fax": "TIADA MAKLUMAT",
      "lat": 3.104049831,
      "lng": 101.6886346,
      "refid": 40
    },
    {
      "state": "W.P. KUALA LUMPUR",
      "place": "MASJID JAMEK SAAD IBN WAQQAS,",
      "address": "JALAN GOMBAK,\n53000 KUALA LUMPUR.",
      "poskod": 53000,
      "district": "ZON 2",
      "no_tel": "03-40231598",
      "no_fax": "TIADA MAKLUMAT",
      "lat": 3.20166523,
      "lng": 101.7027251,
      "refid": 41
    },
    {
      "state": "W.P. KUALA LUMPUR",
      "place": "MASJID ABDULLAH BIN ZUBAIR",
      "address": "JALAN LAPANGAN TERBANG LAMA",
      "poskod": 50460,
      "district": "ZON 5",
      "no_tel": "TIADA MAKLUMAT",
      "no_fax": "TIADA MAKLUMAT",
      "lat": 3.119995928,
      "lng": 101.7029929,
      "refid": 42
    },
    {
      "state": "W.P. KUALA LUMPUR",
      "place": "MASJID AL-MUQARRABIN,",
      "address": "JALAN LIKU TASEK SELATAN,\nBANDAR TASEK SELATAN,\n57100 KUALA LUMPUR",
      "poskod": 57100,
      "district": "ZON 5",
      "no_tel": "03-91725357",
      "no_fax": "TIADA MAKLUMAT",
      "lat": 3.074352908,
      "lng": 101.7190537,
      "refid": 43
    },
    {
      "state": "W.P. KUALA LUMPUR",
      "place": "MASJID INDIA",
      "address": "JALAN MELAYU,",
      "poskod": 50100,
      "district": "ZON 3",
      "no_tel": "03-26921009",
      "no_fax": "03-26931484",
      "lat": 3.151712351,
      "lng": 101.6963672,
      "refid": 44
    },
    {
      "state": "W.P. KUALA LUMPUR",
      "place": "MASJID KHALID BIN AL-WALID",
      "address": "JALAN PADANG TEMBAK,",
      "poskod": 50634,
      "district": "ZON 4",
      "no_tel": "03-2315274",
      "no_fax": "TIADA MAKLUMAT",
      "lat": 3.171876848,
      "lng": 101.7264386,
      "refid": 45
    },
    {
      "state": "W.P. KUALA LUMPUR",
      "place": "MASJID JAMIUL EHSAN",
      "address": "JALAN PAHANG, PEKAN SETAPAK",
      "poskod": 53000,
      "district": "ZON 4",
      "no_tel": "TIADA MAKLUMAT",
      "no_fax": "TIADA MAKLUMAT",
      "lat": 3.18804032,
      "lng": 101.7025887,
      "refid": 46
    },
    {
      "state": "W.P. KUALA LUMPUR",
      "place": "MASJID AR-RAHMAN",
      "address": "JALAN PANTAI BARU,\n59200 KUALA LUMPUR.",
      "poskod": 59200,
      "district": "ZON 6",
      "no_tel": "03-79317786",
      "no_fax": "03-79317786",
      "lat": 3.117933617,
      "lng": 101.6629709,
      "refid": 47
    },
    {
      "state": "W.P. KUALA LUMPUR",
      "place": "MASJID JAMEK AL-KHADIJIAH",
      "address": "JALAN PANTAI DALAM, \nPANTAI DALAM,",
      "poskod": 59200,
      "district": "ZON 6",
      "no_tel": "03-22834592",
      "no_fax": "03-22834592",
      "lat": 3.097731645,
      "lng": 101.6695914,
      "refid": 48
    }
  ]
}